{"time_boot_ms": 164214, "lat": 420619635, "lon": -876775129, "alt": 189090, "relative_alt": 7400, "vx": 1, "vy": 2, "vz": -9, "hdg": 35695, "_timestamp": 1739550166.0273683}
{"time_boot_ms": 164833, "lat": 420619633, "lon": -876775127, "alt": 189090, "relative_alt": 7400, "vx": 0, "vy": 2, "vz": -10, "hdg": 35695, "_timestamp": 1739550166.4451983}
{"time_boot_ms": 165233, "lat": 420619632, "lon": -876775127, "alt": 189090, "relative_alt": 7400, "vx": 0, "vy": 2, "vz": -10, "hdg": 35695, "_timestamp": 1739550166.9763873}
{"time_boot_ms": 165633, "lat": 420619631, "lon": -876775126, "alt": 189110, "relative_alt": 7420, "vx": 0, "vy": 2, "vz": -10, "hdg": 35694, "_timestamp": 1739550167.5841117}
{"time_boot_ms": 166033, "lat": 420619629, "lon": -876775127, "alt": 189140, "relative_alt": 7450, "vx": -1, "vy": 1, "vz": -10, "hdg": 35694, "_timestamp": 1739550168.3519447}
{"time_boot_ms": 166633, "lat": 420619629, "lon": -876775130, "alt": 189180, "relative_alt": 7490, "vx": -1, "vy": 0, "vz": -9, "hdg": 35693, "_timestamp": 1739550168.7426977}
{"time_boot_ms": 167033, "lat": 420619629, "lon": -876775132, "alt": 189210, "relative_alt": 7520, "vx": 0, "vy": -1, "vz": -9, "hdg": 35692, "_timestamp": 1739550169.0512683}
{"time_boot_ms": 167433, "lat": 420619629, "lon": -876775133, "alt": 189230, "relative_alt": 7540, "vx": 0, "vy": -1, "vz": -9, "hdg": 35692, "_timestamp": 1739550169.65173}
{"time_boot_ms": 167833, "lat": 420619630, "lon": -876775134, "alt": 189270, "relative_alt": 7580, "vx": 0, "vy": -1, "vz": -8, "hdg": 35691, "_timestamp": 1739550169.9887228}
{"time_boot_ms": 168433, "lat": 420619625, "lon": -876775132, "alt": 189300, "relative_alt": 7610, "vx": -3, "vy": 0, "vz": -8, "hdg": 35691, "_timestamp": 1739550170.6607692}
{"time_boot_ms": 168833, "lat": 420619619, "lon": -876775128, "alt": 189300, "relative_alt": 7610, "vx": -6, "vy": 1, "vz": -8, "hdg": 35691, "_timestamp": 1739550171.2018187}
{"time_boot_ms": 169433, "lat": 420619619, "lon": -876775127, "alt": 189300, "relative_alt": 7610, "vx": -5, "vy": 0, "vz": -9, "hdg": 35690, "_timestamp": 1739550171.6187694}
{"time_boot_ms": 170033, "lat": 420619619, "lon": -876775126, "alt": 189290, "relative_alt": 7600, "vx": -4, "vy": 1, "vz": -9, "hdg": 35690, "_timestamp": 1739550171.8148}
{"time_boot_ms": 170633, "lat": 420619620, "lon": -876775123, "alt": 189260, "relative_alt": 7570, "vx": -3, "vy": 1, "vz": -10, "hdg": 35689, "_timestamp": 1739550172.2716024}
{"time_boot_ms": 171033, "lat": 420619624, "lon": -876775119, "alt": 189190, "relative_alt": 7500, "vx": 0, "vy": 3, "vz": -12, "hdg": 35688, "_timestamp": 1739550172.7195663}
{"time_boot_ms": 171633, "lat": 420619626, "lon": -876775115, "alt": 189110, "relative_alt": 7420, "vx": 0, "vy": 3, "vz": -14, "hdg": 35688, "_timestamp": 1739550173.705772}
{"time_boot_ms": 172220, "lat": 420619625, "lon": -876775111, "alt": 189020, "relative_alt": -80, "vx": -1, "vy": 4, "vz": -19, "hdg": 35687, "_timestamp": 1739550173.9669328}
{"time_boot_ms": 172840, "lat": 420619627, "lon": -876775108, "alt": 188940, "relative_alt": -160, "vx": 0, "vy": 4, "vz": -21, "hdg": 35687, "_timestamp": 1739550174.4876862}
{"time_boot_ms": 173220, "lat": 420619627, "lon": -876775107, "alt": 188920, "relative_alt": -180, "vx": 0, "vy": 4, "vz": -20, "hdg": 35687, "_timestamp": 1739550175.014811}
{"time_boot_ms": 173820, "lat": 420619626, "lon": -876775106, "alt": 188940, "relative_alt": -160, "vx": -1, "vy": 4, "vz": -18, "hdg": 35687, "_timestamp": 1739550175.7845602}
{"time_boot_ms": 174221, "lat": 420619625, "lon": -876775107, "alt": 188960, "relative_alt": -140, "vx": 0, "vy": 3, "vz": -17, "hdg": 35687, "_timestamp": 1739550176.1496685}
{"time_boot_ms": 174620, "lat": 420619626, "lon": -876775107, "alt": 188980, "relative_alt": -120, "vx": 0, "vy": 2, "vz": -15, "hdg": 35686, "_timestamp": 1739550176.5245264}
{"time_boot_ms": 175220, "lat": 420619627, "lon": -876775109, "alt": 189010, "relative_alt": -90, "vx": 0, "vy": 1, "vz": -14, "hdg": 35686, "_timestamp": 1739550177.408136}
{"time_boot_ms": 175641, "lat": 420619628, "lon": -876775111, "alt": 189050, "relative_alt": -50, "vx": 0, "vy": 0, "vz": -13, "hdg": 35686, "_timestamp": 1739550177.7926037}
{"time_boot_ms": 176041, "lat": 420619628, "lon": -876775113, "alt": 189080, "relative_alt": -20, "vx": 0, "vy": 0, "vz": -12, "hdg": 35686, "_timestamp": 1739550178.2814531}
{"time_boot_ms": 176421, "lat": 420619629, "lon": -876775114, "alt": 189090, "relative_alt": -10, "vx": 0, "vy": 0, "vz": -11, "hdg": 35693, "_timestamp": 1739550178.750325}
{"time_boot_ms": 177041, "lat": 420619630, "lon": -876775114, "alt": 189130, "relative_alt": 30, "vx": -4, "vy": -1, "vz": 35, "hdg": 35610, "_timestamp": 1739550179.2133222}
{"time_boot_ms": 177441, "lat": 420619628, "lon": -876775116, "alt": 189520, "relative_alt": 420, "vx": 9, "vy": -9, "vz": 105, "hdg": 35526, "_timestamp": 1739550179.547349}
{"time_boot_ms": 178022, "lat": 420619654, "lon": -876775135, "alt": 190300, "relative_alt": 1200, "vx": 69, "vy": -23, "vz": 150, "hdg": 35624, "_timestamp": 1739550180.1211176}
{"time_boot_ms": 178641, "lat": 420619703, "lon": -876775152, "alt": 191270, "relative_alt": 2170, "vx": 122, "vy": -5, "vz": 166, "hdg": 35655, "_timestamp": 1739550180.8709881}
{"time_boot_ms": 179023, "lat": 420619770, "lon": -876775159, "alt": 192110, "relative_alt": 3010, "vx": 157, "vy": 0, "vz": 153, "hdg": 35521, "_timestamp": 1739550181.5093386}
{"time_boot_ms": 179632, "lat": 420619843, "lon": -876775167, "alt": 192940, "relative_alt": 3840, "vx": 140, "vy": 5, "vz": 130, "hdg": 35550, "_timestamp": 1739550181.739078}
{"time_boot_ms": 180240, "lat": 420619908, "lon": -876775158, "alt": 193600, "relative_alt": 4500, "vx": 132, "vy": 32, "vz": 89, "hdg": 612, "_timestamp": 1739550182.7025213}
{"time_boot_ms": 180827, "lat": 420619979, "lon": -876775143, "alt": 194100, "relative_alt": 5000, "vx": 151, "vy": 37, "vz": 65, "hdg": 880, "_timestamp": 1739550183.0228984}
{"time_boot_ms": 181435, "lat": 420620069, "lon": -876775128, "alt": 194520, "relative_alt": 5420, "vx": 178, "vy": 34, "vz": 46, "hdg": 667, "_timestamp": 1739550183.460783}
{"time_boot_ms": 181838, "lat": 420620165, "lon": -876775118, "alt": 194870, "relative_alt": 5770, "vx": 184, "vy": 31, "vz": 22, "hdg": 596, "_timestamp": 1739550184.0277345}
{"time_boot_ms": 182629, "lat": 420620260, "lon": -876775106, "alt": 195140, "relative_alt": 6040, "vx": 179, "vy": 32, "vz": 3, "hdg": 692, "_timestamp": 1739550184.5530446}
{"time_boot_ms": 183234, "lat": 420620351, "lon": -876775088, "alt": 195260, "relative_alt": 6160, "vx": 176, "vy": 35, "vz": -22, "hdg": 610, "_timestamp": 1739550185.023993}
{"time_boot_ms": 183823, "lat": 420620448, "lon": -876775057, "alt": 195020, "relative_alt": 5920, "vx": 182, "vy": 55, "vz": -92, "hdg": 2976, "_timestamp": 1739550185.6329505}
{"time_boot_ms": 184430, "lat": 420620553, "lon": -876775008, "alt": 194380, "relative_alt": 5280, "vx": 184, "vy": 62, "vz": -124, "hdg": 8913, "_timestamp": 1739550186.1928377}
{"time_boot_ms": 185036, "lat": 420620652, "lon": -876774990, "alt": 193930, "relative_alt": 4830, "vx": 191, "vy": -5, "vz": -71, "hdg": 14221, "_timestamp": 1739550187.0158005}
{"time_boot_ms": 185623, "lat": 420620744, "lon": -876775039, "alt": 193850, "relative_alt": 4750, "vx": 165, "vy": -73, "vz": 0, "hdg": 16007, "_timestamp": 1739550187.420268}
{"time_boot_ms": 186229, "lat": 420620809, "lon": -876775120, "alt": 194150, "relative_alt": 5050, "vx": 129, "vy": -88, "vz": 63, "hdg": 16008, "_timestamp": 1739550187.8959606}
{"time_boot_ms": 186837, "lat": 420620880, "lon": -876775148, "alt": 194720, "relative_alt": 5620, "vx": 151, "vy": 19, "vz": 113, "hdg": 15534, "_timestamp": 1739550188.3948693}
{"time_boot_ms": 187241, "lat": 420620945, "lon": -876775126, "alt": 195340, "relative_alt": 6240, "vx": 101, "vy": 37, "vz": 110, "hdg": 16939, "_timestamp": 1739550188.8397968}
{"time_boot_ms": 187828, "lat": 420620986, "lon": -876775111, "alt": 195820, "relative_alt": 6720, "vx": 39, "vy": 16, "vz": 71, "hdg": 19836, "_timestamp": 1739550189.4597435}
{"time_boot_ms": 188234, "lat": 420620988, "lon": -876775112, "alt": 196060, "relative_alt": 6960, "vx": -32, "vy": 10, "vz": 43, "hdg": 18301, "_timestamp": 1739550189.9955716}
{"time_boot_ms": 188843, "lat": 420620963, "lon": -876775099, "alt": 196310, "relative_alt": 7210, "vx": -93, "vy": 41, "vz": 48, "hdg": 15297, "_timestamp": 1739550190.573574}
{"time_boot_ms": 189229, "lat": 420620925, "lon": -876775082, "alt": 196560, "relative_alt": 7460, "vx": -136, "vy": 42, "vz": 32, "hdg": 16073, "_timestamp": 1739550191.132535}
{"time_boot_ms": 189632, "lat": 420620861, "lon": -876775067, "alt": 196780, "relative_alt": 7680, "vx": -180, "vy": 19, "vz": 22, "hdg": 18064, "_timestamp": 1739550191.7988663}
{"time_boot_ms": 190240, "lat": 420620779, "lon": -876775069, "alt": 196980, "relative_alt": 7880, "vx": -225, "vy": -3, "vz": 14, "hdg": 18711, "_timestamp": 1739550192.0997047}
{"time_boot_ms": 190645, "lat": 420620676, "lon": -876775086, "alt": 197170, "relative_alt": 8070, "vx": -270, "vy": -24, "vz": 0, "hdg": 18375, "_timestamp": 1739550192.5078974}
{"time_boot_ms": 191030, "lat": 420620563, "lon": -876775109, "alt": 197270, "relative_alt": 8170, "vx": -312, "vy": -39, "vz": -4, "hdg": 18081, "_timestamp": 1739550192.9134512}
{"time_boot_ms": 191636, "lat": 420620427, "lon": -876775136, "alt": 197400, "relative_alt": 8300, "vx": -357, "vy": -39, "vz": -7, "hdg": 17977, "_timestamp": 1739550193.4042473}
{"time_boot_ms": 192040, "lat": 420620278, "lon": -876775152, "alt": 197550, "relative_alt": 8450, "vx": -395, "vy": -32, "vz": 5, "hdg": 18085, "_timestamp": 1739550193.7404008}
{"time_boot_ms": 192445, "lat": 420620102, "lon": -876775168, "alt": 197750, "relative_alt": 8650, "vx": -437, "vy": -33, "vz": 3, "hdg": 18233, "_timestamp": 1739550194.3924098}
{"time_boot_ms": 192830, "lat": 420619916, "lon": -876775190, "alt": 197910, "relative_alt": 8810, "vx": -478, "vy": -47, "vz": 11, "hdg": 18081, "_timestamp": 1739550194.7524767}
{"time_boot_ms": 193436, "lat": 420619719, "lon": -876775214, "alt": 198080, "relative_alt": 8980, "vx": -515, "vy": -46, "vz": 17, "hdg": 18017, "_timestamp": 1739550195.276547}
{"time_boot_ms": 193841, "lat": 420619503, "lon": -876775248, "alt": 198340, "relative_alt": 9240, "vx": -516, "vy": -83, "vz": 27, "hdg": 19068, "_timestamp": 1739550195.8325698}
{"time_boot_ms": 194246, "lat": 420619311, "lon": -876775326, "alt": 198560, "relative_alt": 9460, "vx": -442, "vy": -159, "vz": 14, "hdg": 22900, "_timestamp": 1739550196.2074082}
{"time_boot_ms": 194832, "lat": 420619156, "lon": -876775451, "alt": 198620, "relative_alt": 9520, "vx": -310, "vy": -206, "vz": 0, "hdg": 28774, "_timestamp": 1739550196.8413956}
{"time_boot_ms": 195237, "lat": 420619083, "lon": -876775579, "alt": 198600, "relative_alt": 9500, "vx": -99, "vy": -217, "vz": -41, "hdg": 33800, "_timestamp": 1739550197.3151755}
{"time_boot_ms": 195642, "lat": 420619118, "lon": -876775710, "alt": 198390, "relative_alt": 9290, "vx": 166, "vy": -246, "vz": -83, "hdg": 34800, "_timestamp": 1739550197.773302}
{"time_boot_ms": 196026, "lat": 420619223, "lon": -876775867, "alt": 197950, "relative_alt": 8850, "vx": 285, "vy": -325, "vz": -111, "hdg": 32065, "_timestamp": 1739550198.0446162}
{"time_boot_ms": 196635, "lat": 420619336, "lon": -876776057, "alt": 197610, "relative_alt": 8510, "vx": 281, "vy": -361, "vz": -37, "hdg": 29443, "_timestamp": 1739550198.7345216}
{"time_boot_ms": 197041, "lat": 420619430, "lon": -876776260, "alt": 197650, "relative_alt": 8550, "vx": 244, "vy": -371, "vz": 24, "hdg": 27223, "_timestamp": 1739550199.365305}
{"time_boot_ms": 197427, "lat": 420619492, "lon": -876776455, "alt": 197910, "relative_alt": 8810, "vx": 203, "vy": -390, "vz": 65, "hdg": 27176, "_timestamp": 1739550199.6070797}
{"time_boot_ms": 198034, "lat": 420619548, "lon": -876776698, "alt": 198280, "relative_alt": 9180, "vx": 182, "vy": -443, "vz": 92, "hdg": 27856, "_timestamp": 1739550199.9960043}
{"time_boot_ms": 198439, "lat": 420619606, "lon": -876776980, "alt": 198750, "relative_alt": 9650, "vx": 181, "vy": -493, "vz": 121, "hdg": 28018, "_timestamp": 1739550200.4249365}
{"time_boot_ms": 199028, "lat": 420619670, "lon": -876777318, "alt": 199400, "relative_alt": 10300, "vx": 182, "vy": -541, "vz": 146, "hdg": 27859, "_timestamp": 1739550200.9948206}
{"time_boot_ms": 199432, "lat": 420619737, "lon": -876777675, "alt": 200240, "relative_alt": 11140, "vx": 191, "vy": -573, "vz": 175, "hdg": 27590, "_timestamp": 1739550201.5440788}
{"time_boot_ms": 200037, "lat": 420619812, "lon": -876778076, "alt": 201250, "relative_alt": 12150, "vx": 187, "vy": -616, "vz": 184, "hdg": 27702, "_timestamp": 1739550201.902998}
{"time_boot_ms": 200644, "lat": 420619892, "lon": -876778507, "alt": 202270, "relative_alt": 13170, "vx": 195, "vy": -655, "vz": 171, "hdg": 27845, "_timestamp": 1739550202.6362276}
{"time_boot_ms": 201029, "lat": 420619973, "lon": -876778964, "alt": 202960, "relative_alt": 13860, "vx": 204, "vy": -692, "vz": 55, "hdg": 27946, "_timestamp": 1739550203.1497579}
{"time_boot_ms": 201635, "lat": 420620064, "lon": -876779412, "alt": 203060, "relative_alt": 13960, "vx": 261, "vy": -714, "vz": -9, "hdg": 28543, "_timestamp": 1739550203.561114}
{"time_boot_ms": 202242, "lat": 420620213, "lon": -876779885, "alt": 202970, "relative_alt": 13870, "vx": 366, "vy": -696, "vz": -45, "hdg": 31034, "_timestamp": 1739550204.0106184}
{"time_boot_ms": 202646, "lat": 420620417, "lon": -876780295, "alt": 202880, "relative_alt": 13780, "vx": 482, "vy": -586, "vz": -25, "hdg": 34278, "_timestamp": 1739550204.715636}
{"time_boot_ms": 203233, "lat": 420620662, "lon": -876780607, "alt": 202970, "relative_alt": 13870, "vx": 559, "vy": -441, "vz": -21, "hdg": 672, "_timestamp": 1739550205.1798477}
{"time_boot_ms": 203839, "lat": 420620926, "lon": -876780819, "alt": 203130, "relative_alt": 14030, "vx": 598, "vy": -282, "vz": -22, "hdg": 2559, "_timestamp": 1739550205.7060714}
{"time_boot_ms": 204243, "lat": 420621192, "lon": -876780936, "alt": 203230, "relative_alt": 14130, "vx": 588, "vy": -133, "vz": -22, "hdg": 4308, "_timestamp": 1739550206.0885906}
{"time_boot_ms": 204832, "lat": 420621440, "lon": -876780971, "alt": 203240, "relative_alt": 14140, "vx": 543, "vy": -5, "vz": -28, "hdg": 5698, "_timestamp": 1739550206.827825}
{"time_boot_ms": 205439, "lat": 420621654, "lon": -876780948, "alt": 203210, "relative_alt": 14110, "vx": 488, "vy": 88, "vz": -34, "hdg": 6937, "_timestamp": 1739550207.2300508}
{"time_boot_ms": 205844, "lat": 420621838, "lon": -876780885, "alt": 203070, "relative_alt": 13970, "vx": 404, "vy": 153, "vz": -50, "hdg": 8389, "_timestamp": 1739550207.4735286}
{"time_boot_ms": 206432, "lat": 420621982, "lon": -876780793, "alt": 202870, "relative_alt": 13770, "vx": 297, "vy": 182, "vz": -39, "hdg": 9926, "_timestamp": 1739550208.0991075}
{"time_boot_ms": 206836, "lat": 420622078, "lon": -876780696, "alt": 202870, "relative_alt": 13770, "vx": 234, "vy": 211, "vz": 0, "hdg": 10066, "_timestamp": 1739550208.5606434}
{"time_boot_ms": 207443, "lat": 420622159, "lon": -876780586, "alt": 203030, "relative_alt": 13930, "vx": 205, "vy": 224, "vz": 4, "hdg": 9445, "_timestamp": 1739550209.029863}
{"time_boot_ms": 207847, "lat": 420622238, "lon": -876780477, "alt": 203110, "relative_alt": 14010, "vx": 212, "vy": 226, "vz": -23, "hdg": 9091, "_timestamp": 1739550209.4954836}
{"time_boot_ms": 208433, "lat": 420622330, "lon": -876780355, "alt": 203100, "relative_alt": 14000, "vx": 188, "vy": 234, "vz": -45, "hdg": 9266, "_timestamp": 1739550209.9647665}
{"time_boot_ms": 208838, "lat": 420622386, "lon": -876780227, "alt": 203040, "relative_alt": 13940, "vx": 100, "vy": 220, "vz": -55, "hdg": 9874, "_timestamp": 1739550210.7423205}
{"time_boot_ms": 209443, "lat": 420622407, "lon": -876780121, "alt": 202950, "relative_alt": 13850, "vx": 58, "vy": 209, "vz": -63, "hdg": 9851, "_timestamp": 1739550211.1643937}
{"time_boot_ms": 209828, "lat": 420622420, "lon": -876780007, "alt": 202850, "relative_alt": 13750, "vx": 22, "vy": 216, "vz": -76, "hdg": 9569, "_timestamp": 1739550211.5485163}
{"time_boot_ms": 210435, "lat": 420622411, "lon": -876779873, "alt": 202620, "relative_alt": 13520, "vx": -30, "vy": 250, "vz": -87, "hdg": 9508, "_timestamp": 1739550212.1593077}
{"time_boot_ms": 210840, "lat": 420622383, "lon": -876779712, "alt": 202410, "relative_alt": 13310, "vx": -69, "vy": 328, "vz": -103, "hdg": 9606, "_timestamp": 1739550212.8081205}
{"time_boot_ms": 211244, "lat": 420622338, "lon": -876779470, "alt": 201970, "relative_alt": 12870, "vx": -106, "vy": 452, "vz": -164, "hdg": 9678, "_timestamp": 1739550213.3904917}
{"time_boot_ms": 211831, "lat": 420622268, "lon": -876779168, "alt": 201310, "relative_alt": 12210, "vx": -198, "vy": 509, "vz": -182, "hdg": 10222, "_timestamp": 1739550213.6031604}
{"time_boot_ms": 212236, "lat": 420622143, "lon": -876778851, "alt": 200610, "relative_alt": 11510, "vx": -306, "vy": 497, "vz": -204, "hdg": 10929, "_timestamp": 1739550214.0791612}
{"time_boot_ms": 212843, "lat": 420621986, "lon": -876778553, "alt": 199940, "relative_alt": 10840, "vx": -380, "vy": 512, "vz": -202, "hdg": 11335, "_timestamp": 1739550214.6600757}
{"time_boot_ms": 213429, "lat": 420621798, "lon": -876778216, "alt": 199430, "relative_alt": 10330, "vx": -403, "vy": 561, "vz": -153, "hdg": 11317, "_timestamp": 1739550215.8331635}
{"time_boot_ms": 213834, "lat": 420621635, "lon": -876777879, "alt": 199230, "relative_alt": 10130, "vx": -388, "vy": 622, "vz": -121, "hdg": 9979, "_timestamp": 1739550216.060435}
{"time_boot_ms": 214241, "lat": 420621467, "lon": -876777471, "alt": 199230, "relative_alt": 10130, "vx": -364, "vy": 684, "vz": -71, "hdg": 8705, "_timestamp": 1739550216.8603141}
{"time_boot_ms": 214829, "lat": 420621340, "lon": -876777057, "alt": 199310, "relative_alt": 10210, "vx": -248, "vy": 737, "vz": -48, "hdg": 5530, "_timestamp": 1739550217.4470503}
{"time_boot_ms": 215234, "lat": 420621288, "lon": -876776587, "alt": 199740, "relative_alt": 10640, "vx": -33, "vy": 692, "vz": 19, "hdg": 781, "_timestamp": 1739550217.7701747}
{"time_boot_ms": 215638, "lat": 420621338, "lon": -876776223, "alt": 200440, "relative_alt": 11340, "vx": 156, "vy": 498, "vz": 31, "hdg": 33119, "_timestamp": 1739550218.0538485}
{"time_boot_ms": 216245, "lat": 420621446, "lon": -876775983, "alt": 201060, "relative_alt": 11960, "vx": 249, "vy": 323, "vz": -22, "hdg": 33093, "_timestamp": 1739550218.6000123}
{"time_boot_ms": 216830, "lat": 420621595, "lon": -876775770, "alt": 200930, "relative_alt": 11830, "vx": 261, "vy": 237, "vz": -158, "hdg": 34277, "_timestamp": 1739550218.9448342}
{"time_boot_ms": 217435, "lat": 420621722, "lon": -876775600, "alt": 200050, "relative_alt": 10950, "vx": 194, "vy": 144, "vz": -254, "hdg": 34572, "_timestamp": 1739550219.3890338}
{"time_boot_ms": 218245, "lat": 420621791, "lon": -876775473, "alt": 198610, "relative_alt": 9510, "vx": 114, "vy": 119, "vz": -338, "hdg": 34680, "_timestamp": 1739550219.8887377}
{"time_boot_ms": 218631, "lat": 420621806, "lon": -876775364, "alt": 197020, "relative_alt": 7920, "vx": 40, "vy": 113, "vz": -344, "hdg": 35087, "_timestamp": 1739550220.580715}
{"time_boot_ms": 219236, "lat": 420621779, "lon": -876775268, "alt": 195330, "relative_alt": 6230, "vx": -54, "vy": 66, "vz": -333, "hdg": 35257, "_timestamp": 1739550221.2308939}
{"time_boot_ms": 219843, "lat": 420621713, "lon": -876775223, "alt": 193880, "relative_alt": 4780, "vx": -124, "vy": 3, "vz": -288, "hdg": 34778, "_timestamp": 1739550221.7681057}
{"time_boot_ms": 220428, "lat": 420621631, "lon": -876775221, "alt": 192810, "relative_alt": 3710, "vx": -134, "vy": -38, "vz": -239, "hdg": 34529, "_timestamp": 1739550222.4609337}
{"time_boot_ms": 221034, "lat": 420621553, "lon": -876775226, "alt": 191970, "relative_alt": 2870, "vx": -143, "vy": -35, "vz": -198, "hdg": 34525, "_timestamp": 1739550222.8381267}
{"time_boot_ms": 221642, "lat": 420621457, "lon": -876775234, "alt": 191340, "relative_alt": 2240, "vx": -210, "vy": -52, "vz": -158, "hdg": 34491, "_timestamp": 1739550223.1456206}
{"time_boot_ms": 222028, "lat": 420621323, "lon": -876775262, "alt": 190870, "relative_alt": 1770, "vx": -237, "vy": -42, "vz": -113, "hdg": 34631, "_timestamp": 1739550223.8636675}
{"time_boot_ms": 222636, "lat": 420621205, "lon": -876775265, "alt": 190570, "relative_alt": 1470, "vx": -197, "vy": -8, "vz": -80, "hdg": 34581, "_timestamp": 1739550224.4294271}
{"time_boot_ms": 223226, "lat": 420621115, "lon": -876775257, "alt": 190420, "relative_alt": 1320, "vx": -168, "vy": -2, "vz": -62, "hdg": 34482, "_timestamp": 1739550224.9115593}
{"time_boot_ms": 223830, "lat": 420621048, "lon": -876775256, "alt": 190350, "relative_alt": 1250, "vx": -140, "vy": -6, "vz": -50, "hdg": 34541, "_timestamp": 1739550225.4578135}
{"time_boot_ms": 224234, "lat": 420620989, "lon": -876775255, "alt": 190260, "relative_alt": 1160, "vx": -125, "vy": -3, "vz": -51, "hdg": 34558, "_timestamp": 1739550226.321148}
{"time_boot_ms": 224841, "lat": 420620939, "lon": -876775249, "alt": 190170, "relative_alt": 1070, "vx": -111, "vy": 1, "vz": -53, "hdg": 34587, "_timestamp": 1739550226.746145}
{"time_boot_ms": 225244, "lat": 420620881, "lon": -876775236, "alt": 190070, "relative_alt": 970, "vx": -153, "vy": 24, "vz": -65, "hdg": 34589, "_timestamp": 1739550227.2003005}
{"time_boot_ms": 225830, "lat": 420620798, "lon": -876775213, "alt": 189900, "relative_alt": 800, "vx": -177, "vy": 36, "vz": -65, "hdg": 34578, "_timestamp": 1739550227.74208}
{"time_boot_ms": 226437, "lat": 420620702, "lon": -876775188, "alt": 189750, "relative_alt": 650, "vx": -195, "vy": 36, "vz": -79, "hdg": 34566, "_timestamp": 1739550228.2390928}
{"time_boot_ms": 226843, "lat": 420620614, "lon": -876775176, "alt": 189500, "relative_alt": 400, "vx": -189, "vy": 24, "vz": -83, "hdg": 34372, "_timestamp": 1739550228.7016969}
{"time_boot_ms": 227430, "lat": 420620520, "lon": -876775165, "alt": 189360, "relative_alt": 260, "vx": -203, "vy": 17, "vz": -74, "hdg": 34418, "_timestamp": 1739550229.1284735}
{"time_boot_ms": 227836, "lat": 420620420, "lon": -876775165, "alt": 189290, "relative_alt": 190, "vx": -223, "vy": -1, "vz": -72, "hdg": 34518, "_timestamp": 1739550229.7351296}
{"time_boot_ms": 228443, "lat": 420620316, "lon": -876775179, "alt": 189240, "relative_alt": 140, "vx": -213, "vy": -13, "vz": -71, "hdg": 34600, "_timestamp": 1739550230.15921}
{"time_boot_ms": 228847, "lat": 420620223, "lon": -876775190, "alt": 189210, "relative_alt": 110, "vx": -190, "vy": 0, "vz": -68, "hdg": 35202, "_timestamp": 1739550230.705474}
{"time_boot_ms": 229233, "lat": 420620144, "lon": -876775198, "alt": 189200, "relative_alt": 100, "vx": -176, "vy": -14, "vz": -73, "hdg": 35242, "_timestamp": 1739550231.316149}
{"time_boot_ms": 229839, "lat": 420620071, "lon": -876775209, "alt": 189060, "relative_alt": -40, "vx": -145, "vy": -4, "vz": -106, "hdg": 35124, "_timestamp": 1739550231.7698948}
{"time_boot_ms": 230244, "lat": 420620019, "lon": -876775209, "alt": 188740, "relative_alt": -360, "vx": -98, "vy": 13, "vz": -141, "hdg": 34934, "_timestamp": 1739550232.1190672}
{"time_boot_ms": 230831, "lat": 420619988, "lon": -876775201, "alt": 188370, "relative_alt": -730, "vx": -72, "vy": 12, "vz": -152, "hdg": 34926, "_timestamp": 1739550232.6056893}
{"time_boot_ms": 231236, "lat": 420619957, "lon": -876775191, "alt": 187880, "relative_alt": -1220, "vx": -76, "vy": 11, "vz": -164, "hdg": 35016, "_timestamp": 1739550233.2881746}
{"time_boot_ms": 231641, "lat": 420619942, "lon": -876775188, "alt": 187650, "relative_alt": -1450, "vx": 8, "vy": 4, "vz": -73, "hdg": 35246, "_timestamp": 1739550233.8487754}
{"time_boot_ms": 232631, "lat": 420619949, "lon": -876775182, "alt": 187410, "relative_alt": -1690, "vx": 10, "vy": 7, "vz": -72, "hdg": 35244, "_timestamp": 1739550234.8828132}
{"time_boot_ms": 233032, "lat": 420619947, "lon": -876775177, "alt": 187320, "relative_alt": -1780, "vx": 7, "vy": 9, "vz": -72, "hdg": 35241, "_timestamp": 1739550235.4759107}
{"time_boot_ms": 233633, "lat": 420619944, "lon": -876775174, "alt": 187230, "relative_alt": -1870, "vx": 3, "vy": 9, "vz": -72, "hdg": 35240, "_timestamp": 1739550235.9556227}
{"time_boot_ms": 234033, "lat": 420619939, "lon": -876775172, "alt": 187180, "relative_alt": -1920, "vx": 0, "vy": 9, "vz": -70, "hdg": 35238, "_timestamp": 1739550236.708771}
{"time_boot_ms": 234634, "lat": 420619935, "lon": -876775170, "alt": 187160, "relative_alt": -1940, "vx": -3, "vy": 8, "vz": -69, "hdg": 35236, "_timestamp": 1739550237.1266086}
{"time_boot_ms": 235034, "lat": 420619931, "lon": -876775169, "alt": 187110, "relative_alt": -1990, "vx": -5, "vy": 7, "vz": -68, "hdg": 35235, "_timestamp": 1739550237.559481}
{"time_boot_ms": 235635, "lat": 420619927, "lon": -876775167, "alt": 187070, "relative_alt": -2030, "vx": -7, "vy": 7, "vz": -68, "hdg": 35240, "_timestamp": 1739550238.0934768}
{"time_boot_ms": 236235, "lat": 420619924, "lon": -876775163, "alt": 187010, "relative_alt": -2090, "vx": -9, "vy": 6, "vz": -67, "hdg": 35253, "_timestamp": 1739550238.5604362}
{"time_boot_ms": 236835, "lat": 420619918, "lon": -876775159, "alt": 186950, "relative_alt": -2150, "vx": -12, "vy": 6, "vz": -66, "hdg": 35267, "_timestamp": 1739550238.9735591}
{"time_boot_ms": 237435, "lat": 420619916, "lon": -876775154, "alt": 186900, "relative_alt": -2200, "vx": -11, "vy": 7, "vz": -66, "hdg": 35281, "_timestamp": 1739550239.358095}
{"time_boot_ms": 238235, "lat": 420619914, "lon": -876775147, "alt": 186820, "relative_alt": -2280, "vx": -11, "vy": 8, "vz": -66, "hdg": 35296, "_timestamp": 1739550239.8398323}
{"time_boot_ms": 238835, "lat": 420619911, "lon": -876775142, "alt": 186760, "relative_alt": -2340, "vx": -11, "vy": 7, "vz": -66, "hdg": 35311, "_timestamp": 1739550240.4554665}
{"time_boot_ms": 239635, "lat": 420619908, "lon": -876775138, "alt": 186720, "relative_alt": -2380, "vx": -11, "vy": 6, "vz": -65, "hdg": 35327, "_timestamp": 1739550241.4844694}
{"time_boot_ms": 240835, "lat": 420619901, "lon": -876775136, "alt": 186720, "relative_alt": -2380, "vx": -12, "vy": 4, "vz": -61, "hdg": 35355, "_timestamp": 1739550242.5662897}
{"time_boot_ms": 241435, "lat": 420619897, "lon": -876775134, "alt": 186740, "relative_alt": -2360, "vx": -13, "vy": 3, "vz": -59, "hdg": 35370, "_timestamp": 1739550243.0311983}
{"time_boot_ms": 242035, "lat": 420619895, "lon": -876775132, "alt": 186720, "relative_alt": -2380, "vx": -13, "vy": 2, "vz": -58, "hdg": 35382, "_timestamp": 1739550243.7218006}
{"time_boot_ms": 242435, "lat": 420619892, "lon": -876775129, "alt": 186730, "relative_alt": -2370, "vx": -13, "vy": 2, "vz": -57, "hdg": 35394, "_timestamp": 1739550244.2581437}
{"time_boot_ms": 243035, "lat": 420619890, "lon": -876775124, "alt": 186700, "relative_alt": -2400, "vx": -12, "vy": 3, "vz": -57, "hdg": 35406, "_timestamp": 1739550244.8992772}
{"time_boot_ms": 243635, "lat": 420619888, "lon": -876775119, "alt": 186640, "relative_alt": -2460, "vx": -12, "vy": 4, "vz": -58, "hdg": 35419, "_timestamp": 1739550245.3959746}
{"time_boot_ms": 244235, "lat": 420619885, "lon": -876775115, "alt": 186590, "relative_alt": -2510, "vx": -12, "vy": 4, "vz": -58, "hdg": 35432, "_timestamp": 1739550246.0739312}
{"time_boot_ms": 244635, "lat": 420619882, "lon": -876775113, "alt": 186540, "relative_alt": -2560, "vx": -11, "vy": 4, "vz": -58, "hdg": 35444, "_timestamp": 1739550246.4799507}
{"time_boot_ms": 245235, "lat": 420619879, "lon": -876775110, "alt": 186480, "relative_alt": -2620, "vx": -11, "vy": 4, "vz": -58, "hdg": 35457, "_timestamp": 1739550246.8373315}
{"time_boot_ms": 245635, "lat": 420619876, "lon": -876775107, "alt": 186460, "relative_alt": -2640, "vx": -11, "vy": 4, "vz": -58, "hdg": 35468, "_timestamp": 1739550247.2785766}
{"time_boot_ms": 246235, "lat": 420619872, "lon": -876775107, "alt": 186460, "relative_alt": -2640, "vx": -12, "vy": 4, "vz": -56, "hdg": 35480, "_timestamp": 1739550247.9270124}
{"time_boot_ms": 246635, "lat": 420619868, "lon": -876775108, "alt": 186490, "relative_alt": -2610, "vx": -12, "vy": 2, "vz": -54, "hdg": 35490, "_timestamp": 1739550248.3906505}
{"time_boot_ms": 247235, "lat": 420619865, "lon": -876775109, "alt": 186510, "relative_alt": -2590, "vx": -12, "vy": 1, "vz": -53, "hdg": 35502, "_timestamp": 1739550248.8735943}
{"time_boot_ms": 247635, "lat": 420619864, "lon": -876775108, "alt": 186500, "relative_alt": -2600, "vx": -11, "vy": 1, "vz": -52, "hdg": 35513, "_timestamp": 1739550249.263645}
{"time_boot_ms": 248635, "lat": 420619860, "lon": -876775106, "alt": 186480, "relative_alt": -2620, "vx": -10, "vy": 1, "vz": -51, "hdg": 35534, "_timestamp": 1739550250.3866596}
{"time_boot_ms": 249035, "lat": 420619859, "lon": -876775106, "alt": 186460, "relative_alt": -2640, "vx": -9, "vy": 1, "vz": -51, "hdg": 35546, "_timestamp": 1739550250.730709}
{"time_boot_ms": 249635, "lat": 420619860, "lon": -876775105, "alt": 186420, "relative_alt": -2680, "vx": -8, "vy": 1, "vz": -51, "hdg": 35558, "_timestamp": 1739550251.1888149}
{"time_boot_ms": 250035, "lat": 420619860, "lon": -876775102, "alt": 186360, "relative_alt": -2740, "vx": -7, "vy": 2, "vz": -52, "hdg": 35570, "_timestamp": 1739550251.7247126}
{"time_boot_ms": 251035, "lat": 420619857, "lon": -876775099, "alt": 186300, "relative_alt": -2800, "vx": -7, "vy": 3, "vz": -51, "hdg": 35594, "_timestamp": 1739550253.0542333}
{"time_boot_ms": 251435, "lat": 420619855, "lon": -876775100, "alt": 186290, "relative_alt": -2810, "vx": -8, "vy": 2, "vz": -50, "hdg": 35606, "_timestamp": 1739550253.766407}
{"time_boot_ms": 252035, "lat": 420619852, "lon": -876775101, "alt": 186290, "relative_alt": -2810, "vx": -8, "vy": 2, "vz": -50, "hdg": 35618, "_timestamp": 1739550254.3055232}
{"time_boot_ms": 252435, "lat": 420619849, "lon": -876775102, "alt": 186290, "relative_alt": -2810, "vx": -9, "vy": 1, "vz": -48, "hdg": 35630, "_timestamp": 1739550254.70682}
{"time_boot_ms": 253035, "lat": 420619848, "lon": -876775101, "alt": 186270, "relative_alt": -2830, "vx": -9, "vy": 2, "vz": -48, "hdg": 35643, "_timestamp": 1739550255.0833764}
{"time_boot_ms": 253635, "lat": 420619847, "lon": -876775101, "alt": 186290, "relative_alt": -2810, "vx": -9, "vy": 1, "vz": -46, "hdg": 35657, "_timestamp": 1739550255.8773816}
{"time_boot_ms": 254035, "lat": 420619848, "lon": -876775102, "alt": 186290, "relative_alt": -2810, "vx": -8, "vy": 1, "vz": -46, "hdg": 35671, "_timestamp": 1739550256.1944108}
{"time_boot_ms": 254635, "lat": 420619848, "lon": -876775101, "alt": 186270, "relative_alt": -2830, "vx": -7, "vy": 1, "vz": -45, "hdg": 35686, "_timestamp": 1739550256.6633155}
{"time_boot_ms": 255235, "lat": 420619848, "lon": -876775100, "alt": 186250, "relative_alt": -2850, "vx": -7, "vy": 2, "vz": -45, "hdg": 35700, "_timestamp": 1739550257.3492572}
{"time_boot_ms": 255835, "lat": 420619847, "lon": -876775097, "alt": 186240, "relative_alt": -2860, "vx": -7, "vy": 3, "vz": -45, "hdg": 35715, "_timestamp": 1739550257.7489965}
{"time_boot_ms": 256435, "lat": 420619848, "lon": -876775092, "alt": 186210, "relative_alt": -2890, "vx": -7, "vy": 5, "vz": -46, "hdg": 35729, "_timestamp": 1739550258.1821122}
{"time_boot_ms": 256835, "lat": 420619846, "lon": -876775092, "alt": 186180, "relative_alt": -2920, "vx": -8, "vy": 5, "vz": -46, "hdg": 35743, "_timestamp": 1739550258.7240486}
{"time_boot_ms": 257435, "lat": 420619843, "lon": -876775092, "alt": 186170, "relative_alt": -2930, "vx": -9, "vy": 4, "vz": -45, "hdg": 35758, "_timestamp": 1739550259.3501415}
{"time_boot_ms": 258035, "lat": 420619840, "lon": -876775093, "alt": 186160, "relative_alt": -2940, "vx": -10, "vy": 3, "vz": -45, "hdg": 35772, "_timestamp": 1739550259.9052997}
{"time_boot_ms": 258635, "lat": 420619839, "lon": -876775095, "alt": 186140, "relative_alt": -2960, "vx": -9, "vy": 2, "vz": -45, "hdg": 35785, "_timestamp": 1739550260.443088}
{"time_boot_ms": 259235, "lat": 420619837, "lon": -876775096, "alt": 186130, "relative_alt": -2970, "vx": -10, "vy": 2, "vz": -45, "hdg": 35800, "_timestamp": 1739550260.850996}
{"time_boot_ms": 259635, "lat": 420619839, "lon": -876775096, "alt": 186130, "relative_alt": -2970, "vx": -8, "vy": 2, "vz": -45, "hdg": 35814, "_timestamp": 1739550261.3846874}
{"time_boot_ms": 260235, "lat": 420619841, "lon": -876775096, "alt": 186110, "relative_alt": -2990, "vx": -7, "vy": 2, "vz": -44, "hdg": 35828, "_timestamp": 1739550261.953546}
{"time_boot_ms": 260835, "lat": 420619843, "lon": -876775094, "alt": 186080, "relative_alt": -3020, "vx": -6, "vy": 3, "vz": -44, "hdg": 35841, "_timestamp": 1739550262.445746}
