{"time_boot_ms": 402255, "lat": 420619354, "lon": -876775071, "alt": 185110, "relative_alt": -3990, "vx": 4, "vy": 0, "vz": 27, "hdg": 34812, "_timestamp": 1739550404.3955407}
{"time_boot_ms": 402855, "lat": 420619358, "lon": -876775070, "alt": 185030, "relative_alt": -4070, "vx": 5, "vy": 0, "vz": 27, "hdg": 34826, "_timestamp": 1739550404.8631918}
{"time_boot_ms": 403255, "lat": 420619361, "lon": -876775067, "alt": 184970, "relative_alt": -4130, "vx": 5, "vy": 0, "vz": 27, "hdg": 34839, "_timestamp": 1739550405.251512}
{"time_boot_ms": 403856, "lat": 420619365, "lon": -876775066, "alt": 184890, "relative_alt": -4210, "vx": 5, "vy": 0, "vz": 27, "hdg": 34852, "_timestamp": 1739550405.5848}
{"time_boot_ms": 404455, "lat": 420619366, "lon": -876775066, "alt": 184850, "relative_alt": -4250, "vx": 4, "vy": 0, "vz": 28, "hdg": 34865, "_timestamp": 1739550406.4404128}
{"time_boot_ms": 404855, "lat": 420619366, "lon": -876775068, "alt": 184790, "relative_alt": -4310, "vx": 2, "vy": -1, "vz": 28, "hdg": 34878, "_timestamp": 1739550406.7066278}
{"time_boot_ms": 405455, "lat": 420619366, "lon": -876775067, "alt": 184730, "relative_alt": -4370, "vx": 0, "vy": -1, "vz": 27, "hdg": 34890, "_timestamp": 1739550407.2483246}
{"time_boot_ms": 405855, "lat": 420619366, "lon": -876775067, "alt": 184680, "relative_alt": -4420, "vx": 0, "vy": -2, "vz": 27, "hdg": 34902, "_timestamp": 1739550407.6553924}
{"time_boot_ms": 406455, "lat": 420619369, "lon": -876775068, "alt": 184600, "relative_alt": 0, "vx": 0, "vy": -2, "vz": 26, "hdg": 34914, "_timestamp": 1739550408.450336}
{"time_boot_ms": 407055, "lat": 420619374, "lon": -876775068, "alt": 184570, "relative_alt": -30, "vx": 2, "vy": -3, "vz": 27, "hdg": 34925, "_timestamp": 1739550409.0412402}
{"time_boot_ms": 407455, "lat": 420619379, "lon": -876775067, "alt": 184520, "relative_alt": -80, "vx": 3, "vy": -2, "vz": 27, "hdg": 34938, "_timestamp": 1739550409.4555566}
{"time_boot_ms": 408056, "lat": 420619382, "lon": -876775064, "alt": 184460, "relative_alt": -140, "vx": 3, "vy": -1, "vz": 27, "hdg": 34949, "_timestamp": 1739550410.0751264}
{"time_boot_ms": 408656, "lat": 420619383, "lon": -876775063, "alt": 184410, "relative_alt": -190, "vx": 2, "vy": -1, "vz": 27, "hdg": 34962, "_timestamp": 1739550410.6290116}
{"time_boot_ms": 409056, "lat": 420619383, "lon": -876775062, "alt": 184370, "relative_alt": -230, "vx": 2, "vy": -1, "vz": 27, "hdg": 34973, "_timestamp": 1739550411.3040516}
{"time_boot_ms": 409656, "lat": 420619386, "lon": -876775059, "alt": 184270, "relative_alt": -330, "vx": 2, "vy": 0, "vz": 26, "hdg": 34986, "_timestamp": 1739550411.542346}
{"time_boot_ms": 410256, "lat": 420619388, "lon": -876775057, "alt": 184200, "relative_alt": -400, "vx": 1, "vy": 0, "vz": 33, "hdg": 35016, "_timestamp": 1739550412.0254312}
{"time_boot_ms": 410656, "lat": 420619388, "lon": -876775054, "alt": 184330, "relative_alt": -270, "vx": -10, "vy": 9, "vz": 82, "hdg": 35501, "_timestamp": 1739550412.6019106}
{"time_boot_ms": 411256, "lat": 420619383, "lon": -876775047, "alt": 184720, "relative_alt": 120, "vx": 10, "vy": 5, "vz": 130, "hdg": 35690, "_timestamp": 1739550413.171037}
{"time_boot_ms": 411857, "lat": 420619406, "lon": -876775049, "alt": 185290, "relative_alt": 690, "vx": 76, "vy": -2, "vz": 161, "hdg": 35677, "_timestamp": 1739550413.3540769}
{"time_boot_ms": 412257, "lat": 420619461, "lon": -876775056, "alt": 185960, "relative_alt": 1360, "vx": 128, "vy": -13, "vz": 182, "hdg": 35579, "_timestamp": 1739550414.0909488}
{"time_boot_ms": 412858, "lat": 420619526, "lon": -876775069, "alt": 186790, "relative_alt": 2190, "vx": 157, "vy": -16, "vz": 198, "hdg": 35577, "_timestamp": 1739550414.6677458}
{"time_boot_ms": 413445, "lat": 420619603, "lon": -876775083, "alt": 187690, "relative_alt": 3090, "vx": 156, "vy": -15, "vz": 208, "hdg": 332, "_timestamp": 1739550415.199062}
{"time_boot_ms": 413850, "lat": 420619674, "lon": -876775093, "alt": 188610, "relative_alt": 4010, "vx": 168, "vy": -4, "vz": 194, "hdg": 842, "_timestamp": 1739550415.6307814}
{"time_boot_ms": 414456, "lat": 420619758, "lon": -876775089, "alt": 189210, "relative_alt": 4610, "vx": 180, "vy": 20, "vz": 106, "hdg": 4907, "_timestamp": 1739550416.091045}
{"time_boot_ms": 415043, "lat": 420619846, "lon": -876775072, "alt": 189370, "relative_alt": 4770, "vx": 181, "vy": 44, "vz": 43, "hdg": 9132, "_timestamp": 1739550416.5556262}
{"time_boot_ms": 415447, "lat": 420619936, "lon": -876775041, "alt": 189290, "relative_alt": 4690, "vx": 179, "vy": 57, "vz": 12, "hdg": 9628, "_timestamp": 1739550417.3023577}
{"time_boot_ms": 416054, "lat": 420620021, "lon": -876775025, "alt": 189280, "relative_alt": 4680, "vx": 168, "vy": 18, "vz": 35, "hdg": 8617, "_timestamp": 1739550417.6555433}
{"time_boot_ms": 416661, "lat": 420620098, "lon": -876775041, "alt": 189340, "relative_alt": 4740, "vx": 137, "vy": 2, "vz": 52, "hdg": 8196, "_timestamp": 1739550418.4838226}
{"time_boot_ms": 417046, "lat": 420620148, "lon": -876775041, "alt": 189410, "relative_alt": 4810, "vx": 102, "vy": 35, "vz": 57, "hdg": 8627, "_timestamp": 1739550419.0274634}
{"time_boot_ms": 417651, "lat": 420620194, "lon": -876775015, "alt": 189530, "relative_alt": 4930, "vx": 89, "vy": 67, "vz": 69, "hdg": 8780, "_timestamp": 1739550419.647653}
{"time_boot_ms": 418258, "lat": 420620240, "lon": -876774974, "alt": 189740, "relative_alt": 5140, "vx": 94, "vy": 93, "vz": 71, "hdg": 8483, "_timestamp": 1739550420.1865723}
{"time_boot_ms": 418643, "lat": 420620292, "lon": -876774924, "alt": 189880, "relative_alt": 5280, "vx": 102, "vy": 99, "vz": 41, "hdg": 8816, "_timestamp": 1739550420.5218506}
{"time_boot_ms": 419249, "lat": 420620344, "lon": -876774875, "alt": 189700, "relative_alt": 5100, "vx": 76, "vy": 92, "vz": -33, "hdg": 11978, "_timestamp": 1739550421.4423578}
{"time_boot_ms": 419856, "lat": 420620375, "lon": -876774827, "alt": 189140, "relative_alt": 4540, "vx": 32, "vy": 77, "vz": -81, "hdg": 15154, "_timestamp": 1739550421.9012997}
{"time_boot_ms": 420260, "lat": 420620382, "lon": -876774809, "alt": 188720, "relative_alt": 4120, "vx": 8, "vy": 4, "vz": -33, "hdg": 16503, "_timestamp": 1739550422.4133277}
{"time_boot_ms": 420848, "lat": 420620377, "lon": -876774860, "alt": 188640, "relative_alt": 4040, "vx": -23, "vy": -128, "vz": 32, "hdg": 16937, "_timestamp": 1739550422.9281392}
{"time_boot_ms": 421456, "lat": 420620356, "lon": -876774998, "alt": 188770, "relative_alt": 4170, "vx": -37, "vy": -225, "vz": 41, "hdg": 17897, "_timestamp": 1739550423.7497585}
{"time_boot_ms": 421862, "lat": 420620339, "lon": -876775151, "alt": 188690, "relative_alt": 4090, "vx": -32, "vy": -190, "vz": 6, "hdg": 17961, "_timestamp": 1739550424.1605587}
{"time_boot_ms": 422449, "lat": 420620326, "lon": -876775245, "alt": 188430, "relative_alt": 3830, "vx": -39, "vy": -137, "vz": -23, "hdg": 16961, "_timestamp": 1739550424.58464}
{"time_boot_ms": 423055, "lat": 420620304, "lon": -876775311, "alt": 188090, "relative_alt": 3490, "vx": -76, "vy": -114, "vz": -22, "hdg": 17168, "_timestamp": 1739550425.11543}
{"time_boot_ms": 423641, "lat": 420620254, "lon": -876775376, "alt": 187870, "relative_alt": 3270, "vx": -120, "vy": -100, "vz": 3, "hdg": 17958, "_timestamp": 1739550426.0370705}
{"time_boot_ms": 424045, "lat": 420620186, "lon": -876775439, "alt": 187890, "relative_alt": 3290, "vx": -148, "vy": -102, "vz": 45, "hdg": 18029, "_timestamp": 1739550426.4901886}
{"time_boot_ms": 424652, "lat": 420620120, "lon": -876775513, "alt": 188150, "relative_alt": 3550, "vx": -139, "vy": -131, "vz": 68, "hdg": 17876, "_timestamp": 1739550427.517461}
{"time_boot_ms": 425259, "lat": 420620055, "lon": -876775621, "alt": 188230, "relative_alt": 3630, "vx": -151, "vy": -180, "vz": 7, "hdg": 17894, "_timestamp": 1739550428.041066}
{"time_boot_ms": 425846, "lat": 420619982, "lon": -876775771, "alt": 188000, "relative_alt": 3400, "vx": -150, "vy": -250, "vz": -8, "hdg": 17889, "_timestamp": 1739550428.5599911}
{"time_boot_ms": 426453, "lat": 420619908, "lon": -876775993, "alt": 187770, "relative_alt": 3170, "vx": -118, "vy": -329, "vz": -8, "hdg": 17862, "_timestamp": 1739550429.3064942}
{"time_boot_ms": 427261, "lat": 420619858, "lon": -876776306, "alt": 187480, "relative_alt": 2880, "vx": -55, "vy": -389, "vz": 4, "hdg": 17923, "_timestamp": 1739550429.8795466}
{"time_boot_ms": 427847, "lat": 420619835, "lon": -876776699, "alt": 187300, "relative_alt": 2700, "vx": -27, "vy": -429, "vz": 39, "hdg": 17543, "_timestamp": 1739550430.2513838}
{"time_boot_ms": 428655, "lat": 420619816, "lon": -876776938, "alt": 187440, "relative_alt": 2840, "vx": -22, "vy": -149, "vz": 58, "hdg": 17755, "_timestamp": 1739550430.8251493}
{"time_boot_ms": 429462, "lat": 420619808, "lon": -876776967, "alt": 187650, "relative_alt": 3050, "vx": -25, "vy": 12, "vz": 86, "hdg": 17923, "_timestamp": 1739550431.271634}
{"time_boot_ms": 430455, "lat": 420619790, "lon": -876776959, "alt": 188100, "relative_alt": 3500, "vx": -52, "vy": 3, "vz": 112, "hdg": 17822, "_timestamp": 1739550431.9479415}
{"time_boot_ms": 431265, "lat": 420619743, "lon": -876776967, "alt": 188860, "relative_alt": 4260, "vx": -94, "vy": 29, "vz": 134, "hdg": 17974, "_timestamp": 1739550432.858704}
{"time_boot_ms": 431851, "lat": 420619684, "lon": -876776951, "alt": 189330, "relative_alt": 4730, "vx": -95, "vy": 48, "vz": 45, "hdg": 17821, "_timestamp": 1739550433.5379388}
{"time_boot_ms": 432658, "lat": 420619623, "lon": -876776909, "alt": 188860, "relative_alt": 4260, "vx": -104, "vy": 70, "vz": -109, "hdg": 20725, "_timestamp": 1739550434.3130763}
{"time_boot_ms": 433245, "lat": 420619567, "lon": -876776862, "alt": 187980, "relative_alt": 3380, "vx": -85, "vy": 63, "vz": -130, "hdg": 24594, "_timestamp": 1739550434.842872}
{"time_boot_ms": 433850, "lat": 420619535, "lon": -876776845, "alt": 186980, "relative_alt": 2380, "vx": -13, "vy": 27, "vz": -158, "hdg": 28806, "_timestamp": 1739550435.5018942}
{"time_boot_ms": 434458, "lat": 420619558, "lon": -876776828, "alt": 186210, "relative_alt": 1610, "vx": 60, "vy": 43, "vz": -86, "hdg": 29746, "_timestamp": 1739550435.9844966}
{"time_boot_ms": 435045, "lat": 420619577, "lon": -876776767, "alt": 185950, "relative_alt": 1350, "vx": 19, "vy": 105, "vz": 7, "hdg": 27184, "_timestamp": 1739550436.6037264}
{"time_boot_ms": 435449, "lat": 420619566, "lon": -876776655, "alt": 186170, "relative_alt": 1570, "vx": 3, "vy": 181, "vz": 86, "hdg": 22762, "_timestamp": 1739550437.2838006}
{"time_boot_ms": 436056, "lat": 420619577, "lon": -876776522, "alt": 186810, "relative_alt": 2210, "vx": 43, "vy": 174, "vz": 159, "hdg": 19832, "_timestamp": 1739550437.8348272}
{"time_boot_ms": 436460, "lat": 420619590, "lon": -876776416, "alt": 187760, "relative_alt": 3160, "vx": 23, "vy": 133, "vz": 187, "hdg": 20223, "_timestamp": 1739550438.3968735}
{"time_boot_ms": 437046, "lat": 420619588, "lon": -876776342, "alt": 188610, "relative_alt": 4010, "vx": 5, "vy": 111, "vz": 173, "hdg": 19864, "_timestamp": 1739550438.8993092}
{"time_boot_ms": 437449, "lat": 420619584, "lon": -876776271, "alt": 189330, "relative_alt": 4730, "vx": 0, "vy": 102, "vz": 149, "hdg": 18229, "_timestamp": 1739550439.5928285}
{"time_boot_ms": 438056, "lat": 420619584, "lon": -876776205, "alt": 189970, "relative_alt": 5370, "vx": 21, "vy": 93, "vz": 132, "hdg": 16824, "_timestamp": 1739550440.2446704}
{"time_boot_ms": 438662, "lat": 420619608, "lon": -876776154, "alt": 190500, "relative_alt": 5900, "vx": 74, "vy": 68, "vz": 107, "hdg": 17930, "_timestamp": 1739550440.741769}
{"time_boot_ms": 439047, "lat": 420619654, "lon": -876776130, "alt": 190900, "relative_alt": 6300, "vx": 108, "vy": 31, "vz": 78, "hdg": 18699, "_timestamp": 1739550441.1313803}
{"time_boot_ms": 439655, "lat": 420619712, "lon": -876776118, "alt": 191160, "relative_alt": 6560, "vx": 128, "vy": 26, "vz": 41, "hdg": 17201, "_timestamp": 1739550441.655617}
{"time_boot_ms": 440060, "lat": 420619772, "lon": -876776107, "alt": 191000, "relative_alt": 6400, "vx": 142, "vy": 26, "vz": -72, "hdg": 16378, "_timestamp": 1739550442.0754979}
{"time_boot_ms": 440649, "lat": 420619835, "lon": -876776099, "alt": 190450, "relative_alt": 5850, "vx": 153, "vy": 8, "vz": -104, "hdg": 16690, "_timestamp": 1739550442.5102878}
{"time_boot_ms": 441053, "lat": 420619905, "lon": -876776103, "alt": 189840, "relative_alt": 5240, "vx": 167, "vy": -6, "vz": -110, "hdg": 17086, "_timestamp": 1739550443.0254054}
{"time_boot_ms": 441658, "lat": 420619982, "lon": -876776117, "alt": 189380, "relative_alt": 4780, "vx": 178, "vy": -22, "vz": -76, "hdg": 17255, "_timestamp": 1739550443.5012739}
{"time_boot_ms": 442063, "lat": 420620051, "lon": -876776143, "alt": 189090, "relative_alt": 4490, "vx": 159, "vy": -44, "vz": -44, "hdg": 16912, "_timestamp": 1739550444.2280548}
{"time_boot_ms": 442649, "lat": 420620116, "lon": -876776176, "alt": 188930, "relative_alt": 4330, "vx": 145, "vy": -42, "vz": -14, "hdg": 16446, "_timestamp": 1739550444.6551042}
{"time_boot_ms": 443256, "lat": 420620177, "lon": -876776198, "alt": 188920, "relative_alt": 4320, "vx": 134, "vy": -30, "vz": 17, "hdg": 16496, "_timestamp": 1739550444.951409}
{"time_boot_ms": 443661, "lat": 420620235, "lon": -876776247, "alt": 189060, "relative_alt": 4460, "vx": 127, "vy": -104, "vz": 41, "hdg": 16910, "_timestamp": 1739550445.3043272}
{"time_boot_ms": 444249, "lat": 420620291, "lon": -876776333, "alt": 189300, "relative_alt": 4700, "vx": 133, "vy": -113, "vz": 64, "hdg": 16942, "_timestamp": 1739550446.1531684}
{"time_boot_ms": 444653, "lat": 420620350, "lon": -876776375, "alt": 189650, "relative_alt": 5050, "vx": 155, "vy": -45, "vz": 89, "hdg": 16728, "_timestamp": 1739550446.8813176}
{"time_boot_ms": 445058, "lat": 420620419, "lon": -876776395, "alt": 190110, "relative_alt": 5510, "vx": 169, "vy": -39, "vz": 96, "hdg": 14638, "_timestamp": 1739550447.379394}
{"time_boot_ms": 445663, "lat": 420620491, "lon": -876776430, "alt": 190590, "relative_alt": 5990, "vx": 172, "vy": -47, "vz": 105, "hdg": 10246, "_timestamp": 1739550448.1419485}
{"time_boot_ms": 446047, "lat": 420620551, "lon": -876776470, "alt": 191100, "relative_alt": 6500, "vx": 148, "vy": -43, "vz": 114, "hdg": 7132, "_timestamp": 1739550448.7419612}
{"time_boot_ms": 446451, "lat": 420620602, "lon": -876776500, "alt": 191500, "relative_alt": 6900, "vx": 128, "vy": -36, "vz": 43, "hdg": 7151, "_timestamp": 1739550449.4788568}
{"time_boot_ms": 447058, "lat": 420620646, "lon": -876776528, "alt": 191410, "relative_alt": 6810, "vx": 86, "vy": -29, "vz": -42, "hdg": 8384, "_timestamp": 1739550449.7783494}
{"time_boot_ms": 447645, "lat": 420620660, "lon": -876776548, "alt": 190950, "relative_alt": 6350, "vx": 20, "vy": -22, "vz": -108, "hdg": 8915, "_timestamp": 1739550450.2890644}
{"time_boot_ms": 448051, "lat": 420620651, "lon": -876776569, "alt": 190190, "relative_alt": 5590, "vx": -10, "vy": -23, "vz": -169, "hdg": 8820, "_timestamp": 1739550450.7869198}
{"time_boot_ms": 448657, "lat": 420620641, "lon": -876776576, "alt": 188830, "relative_alt": 4230, "vx": 16, "vy": 33, "vz": -231, "hdg": 8162, "_timestamp": 1739550451.0500498}
{"time_boot_ms": 449449, "lat": 420620654, "lon": -876776553, "alt": 187330, "relative_alt": 2730, "vx": 56, "vy": 34, "vz": -220, "hdg": 8130, "_timestamp": 1739550451.5799866}
{"time_boot_ms": 450056, "lat": 420620688, "lon": -876776548, "alt": 186070, "relative_alt": 1470, "vx": 68, "vy": 22, "vz": -149, "hdg": 8568, "_timestamp": 1739550452.0096755}
{"time_boot_ms": 450661, "lat": 420620713, "lon": -876776546, "alt": 185380, "relative_alt": 780, "vx": 48, "vy": 24, "vz": -42, "hdg": 8767, "_timestamp": 1739550452.3856103}
{"time_boot_ms": 451450, "lat": 420620730, "lon": -876776544, "alt": 185350, "relative_alt": 750, "vx": 44, "vy": 14, "vz": 34, "hdg": 9030, "_timestamp": 1739550453.1708946}
{"time_boot_ms": 452056, "lat": 420620752, "lon": -876776556, "alt": 185570, "relative_alt": 970, "vx": 51, "vy": -6, "vz": 62, "hdg": 7598, "_timestamp": 1739550453.6251426}
{"time_boot_ms": 452643, "lat": 420620772, "lon": -876776579, "alt": 185880, "relative_alt": 1280, "vx": 54, "vy": -22, "vz": 79, "hdg": 2413, "_timestamp": 1739550454.1264637}
{"time_boot_ms": 453048, "lat": 420620792, "lon": -876776605, "alt": 186270, "relative_alt": 1670, "vx": 60, "vy": -22, "vz": 83, "hdg": 35274, "_timestamp": 1739550455.003649}
{"time_boot_ms": 453654, "lat": 420620803, "lon": -876776606, "alt": 186490, "relative_alt": 1890, "vx": 3, "vy": 9, "vz": 39, "hdg": 35857, "_timestamp": 1739550455.5579915}
{"time_boot_ms": 454058, "lat": 420620782, "lon": -876776598, "alt": 186550, "relative_alt": 1950, "vx": -43, "vy": 16, "vz": 23, "hdg": 726, "_timestamp": 1739550456.197683}
{"time_boot_ms": 454664, "lat": 420620748, "lon": -876776569, "alt": 186560, "relative_alt": 1960, "vx": -47, "vy": 65, "vz": 6, "hdg": 8, "_timestamp": 1739550456.6584659}
{"time_boot_ms": 455048, "lat": 420620727, "lon": -876776519, "alt": 186550, "relative_alt": 1950, "vx": -20, "vy": 62, "vz": -1, "hdg": 34649, "_timestamp": 1739550457.3848183}
{"time_boot_ms": 455655, "lat": 420620721, "lon": -876776483, "alt": 186490, "relative_alt": 1890, "vx": -2, "vy": 44, "vz": -24, "hdg": 32355, "_timestamp": 1739550458.1723697}
{"time_boot_ms": 456060, "lat": 420620720, "lon": -876776450, "alt": 186340, "relative_alt": 1740, "vx": 10, "vy": 50, "vz": -37, "hdg": 27844, "_timestamp": 1739550458.6594493}
{"time_boot_ms": 456648, "lat": 420620735, "lon": -876776409, "alt": 186170, "relative_alt": 1570, "vx": 52, "vy": 55, "vz": -34, "hdg": 25927, "_timestamp": 1739550459.2654333}
{"time_boot_ms": 457054, "lat": 420620757, "lon": -876776364, "alt": 186020, "relative_alt": 1420, "vx": 31, "vy": 67, "vz": -21, "hdg": 26476, "_timestamp": 1739550459.88204}
{"time_boot_ms": 457662, "lat": 420620757, "lon": -876776315, "alt": 185970, "relative_alt": 1370, "vx": -11, "vy": 62, "vz": -6, "hdg": 26614, "_timestamp": 1739550460.5132074}
{"time_boot_ms": 458048, "lat": 420620737, "lon": -876776272, "alt": 185970, "relative_alt": 1370, "vx": -60, "vy": 46, "vz": 4, "hdg": 26701, "_timestamp": 1739550461.0509136}
{"time_boot_ms": 458857, "lat": 420620678, "lon": -876776220, "alt": 186020, "relative_alt": 1420, "vx": -127, "vy": 39, "vz": 8, "hdg": 26824, "_timestamp": 1739550461.439105}
{"time_boot_ms": 459446, "lat": 420620590, "lon": -876776173, "alt": 186050, "relative_alt": 1450, "vx": -157, "vy": 26, "vz": 2, "hdg": 26578, "_timestamp": 1739550461.9837074}
{"time_boot_ms": 460253, "lat": 420620487, "lon": -876776121, "alt": 185980, "relative_alt": 1380, "vx": -150, "vy": 40, "vz": -20, "hdg": 26612, "_timestamp": 1739550462.7727187}
{"time_boot_ms": 461061, "lat": 420620390, "lon": -876776052, "alt": 185950, "relative_alt": 1350, "vx": -146, "vy": 57, "vz": -9, "hdg": 25075, "_timestamp": 1739550463.1894014}
{"time_boot_ms": 461851, "lat": 420620324, "lon": -876775968, "alt": 185910, "relative_alt": 1310, "vx": -54, "vy": 73, "vz": -33, "hdg": 15272, "_timestamp": 1739550463.7035089}
{"time_boot_ms": 462659, "lat": 420620335, "lon": -876775947, "alt": 185690, "relative_alt": 1090, "vx": 24, "vy": -10, "vz": -33, "hdg": 12209, "_timestamp": 1739550464.4639604}
{"time_boot_ms": 463447, "lat": 420620365, "lon": -876775991, "alt": 185240, "relative_alt": 640, "vx": 57, "vy": -33, "vz": -35, "hdg": 10534, "_timestamp": 1739550465.1110184}
{"time_boot_ms": 464256, "lat": 420620398, "lon": -876776077, "alt": 184920, "relative_alt": 320, "vx": 0, "vy": -64, "vz": 5, "hdg": 35017, "_timestamp": 1739550465.898745}
{"time_boot_ms": 465046, "lat": 420620301, "lon": -876776103, "alt": 185090, "relative_alt": 490, "vx": -175, "vy": 39, "vz": 53, "hdg": 32317, "_timestamp": 1739550466.70995}
{"time_boot_ms": 465653, "lat": 420620172, "lon": -876776030, "alt": 185200, "relative_alt": 600, "vx": -180, "vy": 122, "vz": -13, "hdg": 35549, "_timestamp": 1739550467.485901}
{"time_boot_ms": 466444, "lat": 420620068, "lon": -876775903, "alt": 184820, "relative_alt": 220, "vx": -149, "vy": 163, "vz": -24, "hdg": 1154, "_timestamp": 1739550468.0966604}
{"time_boot_ms": 467052, "lat": 420619977, "lon": -876775781, "alt": 185020, "relative_alt": 420, "vx": -135, "vy": 175, "vz": 51, "hdg": 916, "_timestamp": 1739550468.7915704}
{"time_boot_ms": 467860, "lat": 420619897, "lon": -876775636, "alt": 185500, "relative_alt": 900, "vx": -51, "vy": 157, "vz": 118, "hdg": 801, "_timestamp": 1739550469.6005442}
{"time_boot_ms": 468466, "lat": 420619891, "lon": -876775566, "alt": 186190, "relative_alt": 1590, "vx": 17, "vy": 92, "vz": 76, "hdg": 342, "_timestamp": 1739550470.0864825}
{"time_boot_ms": 469256, "lat": 420619888, "lon": -876775510, "alt": 186430, "relative_alt": 1830, "vx": 1, "vy": 80, "vz": 20, "hdg": 6442, "_timestamp": 1739550471.0804362}
{"time_boot_ms": 469861, "lat": 420619868, "lon": -876775495, "alt": 186270, "relative_alt": 1670, "vx": -20, "vy": 14, "vz": -32, "hdg": 8093, "_timestamp": 1739550471.7564394}
{"time_boot_ms": 470449, "lat": 420619843, "lon": -876775533, "alt": 186000, "relative_alt": 1400, "vx": -33, "vy": -55, "vz": -41, "hdg": 4810, "_timestamp": 1739550472.1985736}
{"time_boot_ms": 470852, "lat": 420619807, "lon": -876775592, "alt": 185740, "relative_alt": 1140, "vx": -80, "vy": -15, "vz": -24, "hdg": 35207, "_timestamp": 1739550472.7666368}
{"time_boot_ms": 471459, "lat": 420619759, "lon": -876775567, "alt": 185690, "relative_alt": 1090, "vx": -74, "vy": 88, "vz": -3, "hdg": 32797, "_timestamp": 1739550473.2005343}
{"time_boot_ms": 471863, "lat": 420619723, "lon": -876775514, "alt": 185700, "relative_alt": 1100, "vx": -57, "vy": 80, "vz": -24, "hdg": 32852, "_timestamp": 1739550473.913607}
{"time_boot_ms": 472450, "lat": 420619701, "lon": -876775478, "alt": 185540, "relative_alt": 940, "vx": -17, "vy": 86, "vz": -56, "hdg": 33846, "_timestamp": 1739550474.2620647}
{"time_boot_ms": 472854, "lat": 420619699, "lon": -876775442, "alt": 185190, "relative_alt": 590, "vx": 17, "vy": 76, "vz": -88, "hdg": 33840, "_timestamp": 1739550474.8072307}
{"time_boot_ms": 473460, "lat": 420619706, "lon": -876775425, "alt": 184640, "relative_alt": 40, "vx": 34, "vy": 49, "vz": -115, "hdg": 32750, "_timestamp": 1739550475.26517}
{"time_boot_ms": 473866, "lat": 420619721, "lon": -876775415, "alt": 183970, "relative_alt": -630, "vx": 55, "vy": 54, "vz": -132, "hdg": 32461, "_timestamp": 1739550475.838771}
{"time_boot_ms": 474453, "lat": 420619734, "lon": -876775395, "alt": 183270, "relative_alt": -1330, "vx": 34, "vy": 67, "vz": -127, "hdg": 32727, "_timestamp": 1739550476.3565288}
{"time_boot_ms": 474858, "lat": 420619726, "lon": -876775364, "alt": 182770, "relative_alt": -1830, "vx": -16, "vy": 81, "vz": -72, "hdg": 33042, "_timestamp": 1739550476.8150296}
{"time_boot_ms": 475263, "lat": 420619695, "lon": -876775324, "alt": 182570, "relative_alt": -2030, "vx": -58, "vy": 97, "vz": -20, "hdg": 33102, "_timestamp": 1739550477.088443}
{"time_boot_ms": 475851, "lat": 420619659, "lon": -876775275, "alt": 182560, "relative_alt": -2040, "vx": -55, "vy": 98, "vz": -5, "hdg": 33028, "_timestamp": 1739550477.5821655}
{"time_boot_ms": 476458, "lat": 420619635, "lon": -876775225, "alt": 182630, "relative_alt": -1970, "vx": -29, "vy": 85, "vz": -21, "hdg": 33086, "_timestamp": 1739550478.1941426}
{"time_boot_ms": 476864, "lat": 420619621, "lon": -876775192, "alt": 182540, "relative_alt": -2060, "vx": -20, "vy": 65, "vz": -58, "hdg": 33109, "_timestamp": 1739550478.911107}
{"time_boot_ms": 477450, "lat": 420619605, "lon": -876775171, "alt": 182260, "relative_alt": -2340, "vx": -23, "vy": 44, "vz": -85, "hdg": 33023, "_timestamp": 1739550479.5111752}
{"time_boot_ms": 477853, "lat": 420619591, "lon": -876775150, "alt": 181940, "relative_alt": -2660, "vx": -16, "vy": 47, "vz": -84, "hdg": 33125, "_timestamp": 1739550479.762055}
{"time_boot_ms": 478458, "lat": 420619579, "lon": -876775131, "alt": 181540, "relative_alt": -3060, "vx": -25, "vy": 36, "vz": -74, "hdg": 33094, "_timestamp": 1739550480.318085}
{"time_boot_ms": 478863, "lat": 420619569, "lon": -876775126, "alt": 181310, "relative_alt": -3290, "vx": 12, "vy": 0, "vz": -13, "hdg": 33058, "_timestamp": 1739550480.9551156}
{"time_boot_ms": 479450, "lat": 420619571, "lon": -876775135, "alt": 181230, "relative_alt": -3370, "vx": 12, "vy": -2, "vz": -13, "hdg": 33049, "_timestamp": 1739550481.5753386}
{"time_boot_ms": 479852, "lat": 420619570, "lon": -876775140, "alt": 181150, "relative_alt": -3450, "vx": 11, "vy": -3, "vz": -14, "hdg": 33041, "_timestamp": 1739550482.2967942}
{"time_boot_ms": 480254, "lat": 420619569, "lon": -876775141, "alt": 181080, "relative_alt": -3520, "vx": 11, "vy": -3, "vz": -14, "hdg": 33035, "_timestamp": 1739550482.6655931}
{"time_boot_ms": 480854, "lat": 420619569, "lon": -876775141, "alt": 181010, "relative_alt": -3590, "vx": 11, "vy": -2, "vz": -15, "hdg": 33030, "_timestamp": 1739550483.0836425}
{"time_boot_ms": 481255, "lat": 420619570, "lon": -876775143, "alt": 180960, "relative_alt": -3640, "vx": 11, "vy": -2, "vz": -15, "hdg": 33025, "_timestamp": 1739550483.864642}
{"time_boot_ms": 481854, "lat": 420619570, "lon": -876775145, "alt": 180930, "relative_alt": -3670, "vx": 10, "vy": -1, "vz": -14, "hdg": 33029, "_timestamp": 1739550484.2950516}
{"time_boot_ms": 482455, "lat": 420619569, "lon": -876775146, "alt": 180910, "relative_alt": -3690, "vx": 9, "vy": -1, "vz": -14, "hdg": 33039, "_timestamp": 1739550484.7807565}
{"time_boot_ms": 483055, "lat": 420619569, "lon": -876775148, "alt": 180900, "relative_alt": -3700, "vx": 7, "vy": -1, "vz": -13, "hdg": 33051, "_timestamp": 1739550485.0695891}
{"time_boot_ms": 483655, "lat": 420619568, "lon": -876775147, "alt": 180880, "relative_alt": -3720, "vx": 5, "vy": 0, "vz": -12, "hdg": 33062, "_timestamp": 1739550485.581799}
{"time_boot_ms": 484255, "lat": 420619567, "lon": -876775149, "alt": 180880, "relative_alt": -3720, "vx": 3, "vy": 0, "vz": -11, "hdg": 33074, "_timestamp": 1739550485.9696102}
{"time_boot_ms": 484854, "lat": 420619568, "lon": -876775150, "alt": 180890, "relative_alt": -3710, "vx": 2, "vy": 0, "vz": -11, "hdg": 33085, "_timestamp": 1739550486.5504978}
{"time_boot_ms": 485455, "lat": 420619568, "lon": -876775153, "alt": 180910, "relative_alt": -3690, "vx": 1, "vy": 0, "vz": -9, "hdg": 33096, "_timestamp": 1739550486.998294}
{"time_boot_ms": 486054, "lat": 420619571, "lon": -876775151, "alt": 180910, "relative_alt": -3690, "vx": 1, "vy": 1, "vz": -9, "hdg": 33109, "_timestamp": 1739550487.8276567}
{"time_boot_ms": 486655, "lat": 420619572, "lon": -876775147, "alt": 180940, "relative_alt": -3660, "vx": 0, "vy": 3, "vz": -8, "hdg": 33120, "_timestamp": 1739550488.3124776}
{"time_boot_ms": 487255, "lat": 420619574, "lon": -876775145, "alt": 180980, "relative_alt": -3620, "vx": 0, "vy": 3, "vz": -6, "hdg": 33132, "_timestamp": 1739550488.8117976}
{"time_boot_ms": 487855, "lat": 420619577, "lon": -876775145, "alt": 181030, "relative_alt": -3570, "vx": 0, "vy": 3, "vz": -5, "hdg": 33144, "_timestamp": 1739550489.4384375}
{"time_boot_ms": 488455, "lat": 420619580, "lon": -876775146, "alt": 181050, "relative_alt": -3550, "vx": 0, "vy": 2, "vz": -4, "hdg": 33156, "_timestamp": 1739550490.0333629}
